<?xml version="1.0" encoding="utf-8"?>
<Volunteers>
  <Volunteer>
    <Id>28442259</Id>
    <Name>Sarah Cohen</Name>
    <PhoneNumber>052-3918274</PhoneNumber>
    <Email>Sarah.Cohen@gmail.com</Email>
    <Password>Sarah1234</Password>
    <Address>12 Ben Yehuda Street, Jerusalem, Israel</Address>
    <Latitude>31.7815951</Latitude>
    <Longitude>35.2175388</Longitude>
    <MyJob>Volunteer</MyJob>
    <active>true</active>
    <distance>59.22763409325508</distance>
    <MyWhichDistance>WalkingDistance</MyWhichDistance>
  </Volunteer>
  <Volunteer>
    <Id>16564899</Id>
    <Name>Osher Mizrahi</Name>
    <PhoneNumber>050-5639842</PhoneNumber>
    <Email>Osher.Mizrahi@yahoo.com</Email>
    <Password>Mizrahi789</Password>
    <Address>45 Hillel Street, Jerusalem, Israel</Address>
    <Latitude>31.7793341</Latitude>
    <Longitude>35.2214706</Longitude>
    <MyJob>Volunteer</MyJob>
    <active>true</active>
    <distance>2.589821998252406</distance>
    <MyWhichDistance>WalkingDistance</MyWhichDistance>
  </Volunteer>
  <Volunteer>
    <Id>38535681</Id>
    <Name>Yaara Levi</Name>
    <PhoneNumber>054-1283795</PhoneNumber>
    <Email>Yaara.Levi@outlook.com</Email>
    <Password>YL2023</Password>
    <Address>67 Yafo Street, Jerusalem, Israel</Address>
    <Latitude>31.783678</Latitude>
    <Longitude>35.216553</Longitude>
    <MyJob>Manager</MyJob>
    <active>true</active>
    <distance>44.58866380924763</distance>
    <MyWhichDistance>AirDistance</MyWhichDistance>
  </Volunteer>
  <Volunteer>
    <Id>21975201</Id>
    <Name>Eli Ben-David</Name>
    <PhoneNumber>053-6472391</PhoneNumber>
    <Email>Eli.BenDavid@mail.com</Email>
    <Password>EliBD2021</Password>
    <Address>101 Herzl Street, Jerusalem, Israel</Address>
    <Latitude>31.780965</Latitude>
    <Longitude>35.188818</Longitude>
    <MyJob>Volunteer</MyJob>
    <active>true</active>
    <distance>81.89664452332623</distance>
    <MyWhichDistance>AirDistance</MyWhichDistance>
  </Volunteer>
  <Volunteer>
    <Id>14301067</Id>
    <Name>Maya Shapiro</Name>
    <PhoneNumber>058-9042318</PhoneNumber>
    <Email>Maya.Shapiro@icloud.com</Email>
    <Password>Shapiro44A</Password>
    <Address>23 King David Street, Jerusalem, Israel</Address>
    <Latitude>31.7745543</Latitude>
    <Longitude>35.2226839</Longitude>
    <MyJob>Volunteer</MyJob>
    <active>true</active>
    <distance>30.265653282192773</distance>
    <MyWhichDistance>AirDistance</MyWhichDistance>
  </Volunteer>
  <Volunteer>
    <Id>18582882</Id>
    <Name>Yair Katz</Name>
    <PhoneNumber>050-9834657</PhoneNumber>
    <Email>Yair.Katz@googlemail.com</Email>
    <Password>YairKatz99</Password>
    <Address>56 Agron Street, Jerusalem, Israel</Address>
    <Latitude>31.7779632</Latitude>
    <Longitude>35.2221859</Longitude>
    <MyJob>Volunteer</MyJob>
    <active>true</active>
    <distance>36.77796532760672</distance>
    <MyWhichDistance>DrivingDistance</MyWhichDistance>
  </Volunteer>
  <Volunteer>
    <Id>26173919</Id>
    <Name>Noa Peretz</Name>
    <PhoneNumber>052-7512386</PhoneNumber>
    <Email>Noa.Peretz@hotmail.com</Email>
    <Password>NoaP321</Password>
    <Address>89 Shlomzion Hamalka Street, Jerusalem, Israel</Address>
    <Latitude>31.7788813</Latitude>
    <Longitude>35.2226822</Longitude>
    <MyJob>Volunteer</MyJob>
    <active>false</active>
    <distance>1.9137226248596706</distance>
    <MyWhichDistance>WalkingDistance</MyWhichDistance>
  </Volunteer>
  <Volunteer>
    <Id>38992266</Id>
    <Name>Aviad Cohen</Name>
    <PhoneNumber>053-4326759</PhoneNumber>
    <Email>Aviad.Cohen@live.com</Email>
    <Password>Aviad567</Password>
    <Address>32 King George Street, Jerusalem, Israel</Address>
    <Latitude>31.779475</Latitude>
    <Longitude>35.215608</Longitude>
    <MyJob>Volunteer</MyJob>
    <active>true</active>
    <distance>87.81114430905447</distance>
    <MyWhichDistance>AirDistance</MyWhichDistance>
  </Volunteer>
  <Volunteer>
    <Id>21571999</Id>
    <Name>Tamar Israeli</Name>
    <PhoneNumber>054-1863420</PhoneNumber>
    <Email>Tamar.Israeli@protonmail.com</Email>
    <Password>Xx1Ab2Cd3</Password>
    <Address>78 Emek Refaim Street, Jerusalem, Israel</Address>
    <Latitude>31.759882</Latitude>
    <Longitude>35.178086</Longitude>
    <MyJob>Volunteer</MyJob>
    <active>true</active>
    <distance>55.65556569108017</distance>
    <MyWhichDistance>AirDistance</MyWhichDistance>
  </Volunteer>
  <Volunteer>
    <Id>15424189</Id>
    <Name>Lior Baruch</Name>
    <PhoneNumber>058-2917463</PhoneNumber>
    <Email>Lior.Baruch@aol.com</Email>
    <Password>Baruch2021</Password>
    <Address>5 Derech Hevron, Jerusalem, Israel</Address>
    <Latitude>31.779475</Latitude>
    <Longitude>35.2151934</Longitude>
    <MyJob>Volunteer</MyJob>
    <active>true</active>
    <distance>89.59290165541206</distance>
    <MyWhichDistance>AirDistance</MyWhichDistance>
  </Volunteer>
  <Volunteer>
    <Id>24334653</Id>
    <Name>Daniella Rosen</Name>
    <PhoneNumber>050-3275641</PhoneNumber>
    <Email>Daniella.Rosen@zoho.com</Email>
    <Password>Daniella123R</Password>
    <Address>14 Eliezer Kaplan Street, Jerusalem, Israel</Address>
    <Latitude>31.779277</Latitude>
    <Longitude>35.2017399</Longitude>
    <MyJob>Volunteer</MyJob>
    <active>true</active>
    <distance>7.218399887356631</distance>
    <MyWhichDistance>WalkingDistance</MyWhichDistance>
  </Volunteer>
  <Volunteer>
    <Id>31859009</Id>
    <Name>Oren Goldstein</Name>
    <PhoneNumber>052-5068493</PhoneNumber>
    <Email>Oren.Goldstein@fastmail.com</Email>
    <Password>OG9876</Password>
    <Address>33 Shmuel Hanavi Street, Jerusalem, Israel</Address>
    <Latitude>31.7898752</Latitude>
    <Longitude>35.2249504</Longitude>
    <MyJob>Volunteer</MyJob>
    <active>true</active>
    <distance>75.29020167961701</distance>
    <MyWhichDistance>DrivingDistance</MyWhichDistance>
  </Volunteer>
  <Volunteer>
    <Id>30227810</Id>
    <Name>Michal Avrahami</Name>
    <PhoneNumber>053-7821594</PhoneNumber>
    <Email>Michal.Avrahami@ymail.com</Email>
    <Password>MichalA1001</Password>
    <Address>8 Dov Hoz Street, Jerusalem, Israel</Address>
    <Latitude>31.756329</Latitude>
    <Longitude>35.195831</Longitude>
    <MyJob>Volunteer</MyJob>
    <active>false</active>
    <distance>99.35827595903166</distance>
    <MyWhichDistance>AirDistance</MyWhichDistance>
  </Volunteer>
  <Volunteer>
    <Id>13307077</Id>
    <Name>Nadav Shulman</Name>
    <PhoneNumber>054-9342105</PhoneNumber>
    <Email>Nadav.Shulman@hushmail.com</Email>
    <Password>Shulman5555</Password>
    <Address>50 Keren Hayesod Street, Jerusalem, Israel</Address>
    <Latitude>31.7716677</Latitude>
    <Longitude>35.2224285</Longitude>
    <MyJob>Volunteer</MyJob>
    <active>true</active>
    <distance>33.39784597645126</distance>
    <MyWhichDistance>WalkingDistance</MyWhichDistance>
  </Volunteer>
  <Volunteer>
    <Id>27830781</Id>
    <Name>Rachel Dubinsky</Name>
    <PhoneNumber>058-6120394</PhoneNumber>
    <Email>Rachel.Dubinsky@msn.com</Email>
    <Password>Rachel78</Password>
    <Address>63 Tchernichovsky Street, Jerusalem, Israel</Address>
    <Latitude>31.7632657</Latitude>
    <Longitude>35.2023972</Longitude>
    <MyJob>Volunteer</MyJob>
    <active>true</active>
    <distance>18.57168415134236</distance>
    <MyWhichDistance>AirDistance</MyWhichDistance>
  </Volunteer>
  <Volunteer>
    <Id>33233271</Id>
    <Name>Uri Dahan</Name>
    <PhoneNumber>050-7461283</PhoneNumber>
    <Email>Uri.Dahan@comcast.net</Email>
    <Password>UD3456</Password>
    <Address>29 Menachem Begin Street, Jerusalem, Israel</Address>
    <Latitude>31.777348</Latitude>
    <Longitude>35.212409</Longitude>
    <MyJob>Volunteer</MyJob>
    <active>true</active>
    <distance>35.14058132217636</distance>
    <MyWhichDistance>DrivingDistance</MyWhichDistance>
  </Volunteer>
  <Volunteer>
    <Id>32322345</Id>
    <Name>Yael Chaimovitz</Name>
    <PhoneNumber>052-9784530</PhoneNumber>
    <Email>Yael.Chaimovitz@outlook.co.il</Email>
    <Password>YaelCh10</Password>
    <Address>72 Malcha Street, Jerusalem, Israel</Address>
    <Latitude>31.7943135</Latitude>
    <Longitude>35.2244155</Longitude>
    <MyJob>Volunteer</MyJob>
    <active>true</active>
    <distance>28.621745246469878</distance>
    <MyWhichDistance>AirDistance</MyWhichDistance>
  </Volunteer>
  <Volunteer>
    <Id>37794557</Id>
    <Name>Ronit Gross</Name>
    <PhoneNumber>053-5289761</PhoneNumber>
    <Email>Ronit.Gross@tutanota.com</Email>
    <Password>RonitG321</Password>
    <Address>101 Sderot Yerushalayim Street, Jerusalem, Israel</Address>
    <Latitude>31.7797692</Latitude>
    <Longitude>35.1880402</Longitude>
    <MyJob>Manager</MyJob>
    <active>true</active>
    <distance>97.48956438782423</distance>
    <MyWhichDistance>AirDistance</MyWhichDistance>
  </Volunteer>
  <Volunteer>
    <Id>17056869</Id>
    <Name>Meir Ziv</Name>
    <PhoneNumber>054-3175928</PhoneNumber>
    <Email>Meir.Ziv@me.com</Email>
    <Password>MeirZ2022</Password>
    <Address>120 Shalom Aleichem Street, Jerusalem, Israel</Address>
    <Latitude>31.771344</Latitude>
    <Longitude>35.2207611</Longitude>
    <MyJob>Volunteer</MyJob>
    <active>false</active>
    <distance>57.56193311219402</distance>
    <MyWhichDistance>DrivingDistance</MyWhichDistance>
  </Volunteer>
  <Volunteer>
    <Id>23785768</Id>
    <Name>Tal Ben-Ari</Name>
    <PhoneNumber>058-8456201</PhoneNumber>
    <Email>Tal.BenAri@icloud.com</Email>
    <Password>TalBen22A</Password>
    <Address>57 Har Homa Street, Jerusalem, Israel</Address>
    <Latitude>31.7677499</Latitude>
    <Longitude>35.162764</Longitude>
    <MyJob>Volunteer</MyJob>
    <active>true</active>
    <distance>94.74524640196289</distance>
    <MyWhichDistance>AirDistance</MyWhichDistance>
  </Volunteer>
</Volunteers>