<?xml version="1.0" encoding="utf-8"?>
<Volunteers>
  <Volunteer>
    <Id>22137828</Id>
    <Name>Sarah Cohen</Name>
    <PhoneNumber>052-3918274</PhoneNumber>
    <Email>Sarah.Cohen@gmail.com</Email>
    <Password>Sarah1234</Password>
    <Address>12 Ben Yehuda Street, Jerusalem, Israel</Address>
    <Latitude>31.7815951</Latitude>
    <Longitude>35.2175388</Longitude>
    <MyJob>Volunteer</MyJob>
    <active>true</active>
    <distance>64.63139915259221</distance>
    <MyWhichDistance>WalkingDistance</MyWhichDistance>
  </Volunteer>
  <Volunteer>
    <Id>13356792</Id>
    <Name>Osher Mizrahi</Name>
    <PhoneNumber>050-5639842</PhoneNumber>
    <Email>Osher.Mizrahi@yahoo.com</Email>
    <Password>Mizrahi789</Password>
    <Address>45 Hillel Street, Jerusalem, Israel</Address>
    <Latitude>31.7793341</Latitude>
    <Longitude>35.2214706</Longitude>
    <MyJob>Volunteer</MyJob>
    <active>true</active>
    <distance>83.91110631244145</distance>
    <MyWhichDistance>WalkingDistance</MyWhichDistance>
  </Volunteer>
  <Volunteer>
    <Id>11860210</Id>
    <Name>Yaara Levi</Name>
    <PhoneNumber>054-1283795</PhoneNumber>
    <Email>Yaara.Levi@outlook.com</Email>
    <Password>YL2023</Password>
    <Address>67 Yafo Street, Jerusalem, Israel</Address>
    <Latitude>31.783678</Latitude>
    <Longitude>35.216553</Longitude>
    <MyJob>Manager</MyJob>
    <active>true</active>
    <distance>46.698548197796875</distance>
    <MyWhichDistance>AirDistance</MyWhichDistance>
  </Volunteer>
  <Volunteer>
    <Id>29995830</Id>
    <Name>Eli Ben-David</Name>
    <PhoneNumber>053-6472391</PhoneNumber>
    <Email>Eli.BenDavid@mail.com</Email>
    <Password>EliBD2021</Password>
    <Address>101 Herzl Street, Jerusalem, Israel</Address>
    <Latitude>31.780965</Latitude>
    <Longitude>35.188818</Longitude>
    <MyJob>Volunteer</MyJob>
    <active>true</active>
    <distance>0.8833804700081993</distance>
    <MyWhichDistance>AirDistance</MyWhichDistance>
  </Volunteer>
  <Volunteer>
    <Id>31265968</Id>
    <Name>Maya Shapiro</Name>
    <PhoneNumber>058-9042318</PhoneNumber>
    <Email>Maya.Shapiro@icloud.com</Email>
    <Password>Shapiro44A</Password>
    <Address>23 King David Street, Jerusalem, Israel</Address>
    <Latitude>31.7745543</Latitude>
    <Longitude>35.2226839</Longitude>
    <MyJob>Volunteer</MyJob>
    <active>true</active>
    <distance>59.08672784143294</distance>
    <MyWhichDistance>AirDistance</MyWhichDistance>
  </Volunteer>
  <Volunteer>
    <Id>38903883</Id>
    <Name>Yair Katz</Name>
    <PhoneNumber>050-9834657</PhoneNumber>
    <Email>Yair.Katz@googlemail.com</Email>
    <Password>YairKatz99</Password>
    <Address>56 Agron Street, Jerusalem, Israel</Address>
    <Latitude>31.7779632</Latitude>
    <Longitude>35.2221859</Longitude>
    <MyJob>Volunteer</MyJob>
    <active>true</active>
    <distance>78.36484245926466</distance>
    <MyWhichDistance>DrivingDistance</MyWhichDistance>
  </Volunteer>
  <Volunteer>
    <Id>21765929</Id>
    <Name>Noa Peretz</Name>
    <PhoneNumber>052-7512386</PhoneNumber>
    <Email>Noa.Peretz@hotmail.com</Email>
    <Password>NoaP321</Password>
    <Address>89 Shlomzion Hamalka Street, Jerusalem, Israel</Address>
    <Latitude>31.7788813</Latitude>
    <Longitude>35.2226822</Longitude>
    <MyJob>Volunteer</MyJob>
    <active>false</active>
    <distance>67.2486873505795</distance>
    <MyWhichDistance>WalkingDistance</MyWhichDistance>
  </Volunteer>
  <Volunteer>
    <Id>25683978</Id>
    <Name>Aviad Cohen</Name>
    <PhoneNumber>053-4326759</PhoneNumber>
    <Email>Aviad.Cohen@live.com</Email>
    <Password>Aviad567</Password>
    <Address>32 King George Street, Jerusalem, Israel</Address>
    <Latitude>31.779475</Latitude>
    <Longitude>35.215608</Longitude>
    <MyJob>Volunteer</MyJob>
    <active>true</active>
    <distance>65.47592111593661</distance>
    <MyWhichDistance>AirDistance</MyWhichDistance>
  </Volunteer>
  <Volunteer>
    <Id>10611233</Id>
    <Name>Tamar Israeli</Name>
    <PhoneNumber>054-1863420</PhoneNumber>
    <Email>Tamar.Israeli@protonmail.com</Email>
    <Password>Xx1Ab2Cd3</Password>
    <Address>78 Emek Refaim Street, Jerusalem, Israel</Address>
    <Latitude>31.759882</Latitude>
    <Longitude>35.178086</Longitude>
    <MyJob>Volunteer</MyJob>
    <active>true</active>
    <distance>56.974674855736836</distance>
    <MyWhichDistance>AirDistance</MyWhichDistance>
  </Volunteer>
  <Volunteer>
    <Id>25701428</Id>
    <Name>Lior Baruch</Name>
    <PhoneNumber>058-2917463</PhoneNumber>
    <Email>Lior.Baruch@aol.com</Email>
    <Password>Baruch2021</Password>
    <Address>5 Derech Hevron, Jerusalem, Israel</Address>
    <Latitude>31.779475</Latitude>
    <Longitude>35.2151934</Longitude>
    <MyJob>Volunteer</MyJob>
    <active>true</active>
    <distance>76.33433681919155</distance>
    <MyWhichDistance>AirDistance</MyWhichDistance>
  </Volunteer>
  <Volunteer>
    <Id>14489310</Id>
    <Name>Daniella Rosen</Name>
    <PhoneNumber>050-3275641</PhoneNumber>
    <Email>Daniella.Rosen@zoho.com</Email>
    <Password>Daniella123R</Password>
    <Address>14 Eliezer Kaplan Street, Jerusalem, Israel</Address>
    <Latitude>31.779277</Latitude>
    <Longitude>35.2017399</Longitude>
    <MyJob>Volunteer</MyJob>
    <active>true</active>
    <distance>24.089100775307525</distance>
    <MyWhichDistance>WalkingDistance</MyWhichDistance>
  </Volunteer>
  <Volunteer>
    <Id>36829346</Id>
    <Name>Oren Goldstein</Name>
    <PhoneNumber>052-5068493</PhoneNumber>
    <Email>Oren.Goldstein@fastmail.com</Email>
    <Password>OG9876</Password>
    <Address>33 Shmuel Hanavi Street, Jerusalem, Israel</Address>
    <Latitude>31.7898752</Latitude>
    <Longitude>35.2249504</Longitude>
    <MyJob>Volunteer</MyJob>
    <active>true</active>
    <distance>46.17474453598855</distance>
    <MyWhichDistance>DrivingDistance</MyWhichDistance>
  </Volunteer>
  <Volunteer>
    <Id>29519232</Id>
    <Name>Michal Avrahami</Name>
    <PhoneNumber>053-7821594</PhoneNumber>
    <Email>Michal.Avrahami@ymail.com</Email>
    <Password>MichalA1001</Password>
    <Address>8 Dov Hoz Street, Jerusalem, Israel</Address>
    <Latitude>31.756329</Latitude>
    <Longitude>35.195831</Longitude>
    <MyJob>Volunteer</MyJob>
    <active>false</active>
    <distance>66.99760938146838</distance>
    <MyWhichDistance>AirDistance</MyWhichDistance>
  </Volunteer>
  <Volunteer>
    <Id>23684302</Id>
    <Name>Nadav Shulman</Name>
    <PhoneNumber>054-9342105</PhoneNumber>
    <Email>Nadav.Shulman@hushmail.com</Email>
    <Password>Shulman5555</Password>
    <Address>50 Keren Hayesod Street, Jerusalem, Israel</Address>
    <Latitude>31.7716677</Latitude>
    <Longitude>35.2224285</Longitude>
    <MyJob>Volunteer</MyJob>
    <active>true</active>
    <distance>43.402539234295745</distance>
    <MyWhichDistance>WalkingDistance</MyWhichDistance>
  </Volunteer>
  <Volunteer>
    <Id>13756998</Id>
    <Name>Rachel Dubinsky</Name>
    <PhoneNumber>058-6120394</PhoneNumber>
    <Email>Rachel.Dubinsky@msn.com</Email>
    <Password>Rachel78</Password>
    <Address>63 Tchernichovsky Street, Jerusalem, Israel</Address>
    <Latitude>31.7632657</Latitude>
    <Longitude>35.2023972</Longitude>
    <MyJob>Volunteer</MyJob>
    <active>true</active>
    <distance>22.613154382177868</distance>
    <MyWhichDistance>AirDistance</MyWhichDistance>
  </Volunteer>
  <Volunteer>
    <Id>39065268</Id>
    <Name>Uri Dahan</Name>
    <PhoneNumber>050-7461283</PhoneNumber>
    <Email>Uri.Dahan@comcast.net</Email>
    <Password>UD3456</Password>
    <Address>29 Menachem Begin Street, Jerusalem, Israel</Address>
    <Latitude>31.777348</Latitude>
    <Longitude>35.212409</Longitude>
    <MyJob>Volunteer</MyJob>
    <active>true</active>
    <distance>68.41257204756909</distance>
    <MyWhichDistance>DrivingDistance</MyWhichDistance>
  </Volunteer>
  <Volunteer>
    <Id>16755125</Id>
    <Name>Yael Chaimovitz</Name>
    <PhoneNumber>052-9784530</PhoneNumber>
    <Email>Yael.Chaimovitz@outlook.co.il</Email>
    <Password>YaelCh10</Password>
    <Address>72 Malcha Street, Jerusalem, Israel</Address>
    <Latitude>31.7943135</Latitude>
    <Longitude>35.2244155</Longitude>
    <MyJob>Volunteer</MyJob>
    <active>true</active>
    <distance>87.7025197197433</distance>
    <MyWhichDistance>AirDistance</MyWhichDistance>
  </Volunteer>
  <Volunteer>
    <Id>13542670</Id>
    <Name>Ronit Gross</Name>
    <PhoneNumber>053-5289761</PhoneNumber>
    <Email>Ronit.Gross@tutanota.com</Email>
    <Password>RonitG321</Password>
    <Address>101 Sderot Yerushalayim Street, Jerusalem, Israel</Address>
    <Latitude>31.7797692</Latitude>
    <Longitude>35.1880402</Longitude>
    <MyJob>Manager</MyJob>
    <active>true</active>
    <distance>41.93802189651821</distance>
    <MyWhichDistance>AirDistance</MyWhichDistance>
  </Volunteer>
  <Volunteer>
    <Id>36326714</Id>
    <Name>Meir Ziv</Name>
    <PhoneNumber>054-3175928</PhoneNumber>
    <Email>Meir.Ziv@me.com</Email>
    <Password>MeirZ2022</Password>
    <Address>120 Shalom Aleichem Street, Jerusalem, Israel</Address>
    <Latitude>31.771344</Latitude>
    <Longitude>35.2207611</Longitude>
    <MyJob>Volunteer</MyJob>
    <active>false</active>
    <distance>50.75276072242563</distance>
    <MyWhichDistance>DrivingDistance</MyWhichDistance>
  </Volunteer>
  <Volunteer>
    <Id>24841200</Id>
    <Name>Tal Ben-Ari</Name>
    <PhoneNumber>058-8456201</PhoneNumber>
    <Email>Tal.BenAri@icloud.com</Email>
    <Password>TalBen22A</Password>
    <Address>57 Har Homa Street, Jerusalem, Israel</Address>
    <Latitude>31.7677499</Latitude>
    <Longitude>35.162764</Longitude>
    <MyJob>Volunteer</MyJob>
    <active>true</active>
    <distance>54.53913092691609</distance>
    <MyWhichDistance>AirDistance</MyWhichDistance>
  </Volunteer>
</Volunteers>