<?xml version="1.0" encoding="utf-8"?>
<Volunteers>
  <Volunteer>
    <Id>25783398</Id>
    <Name>Sarah Cohen</Name>
    <PhoneNumber>0523918274</PhoneNumber>
    <Email>Sarah.Cohen@gmail.com</Email>
    <Password>Sarah1234</Password>
    <Address>12 Ben Yehuda Street, Jerusalem, Israel</Address>
    <Latitude>31.7815951</Latitude>
    <Longitude>35.2175388</Longitude>
    <MyJob>Volunteer</MyJob>
    <active>true</active>
    <distance>56.696726270991704</distance>
    <MyWhichDistance>WalkingDistance</MyWhichDistance>
  </Volunteer>
  <Volunteer>
    <Id>36428958</Id>
    <Name>Osher Mizrahi</Name>
    <PhoneNumber>0505639842</PhoneNumber>
    <Email>Osher.Mizrahi@yahoo.com</Email>
    <Password>Mizrahi789</Password>
    <Address>45 Hillel Street, Jerusalem, Israel</Address>
    <Latitude>31.7793341</Latitude>
    <Longitude>35.2214706</Longitude>
    <MyJob>Volunteer</MyJob>
    <active>false</active>
    <distance>61.19119040987194</distance>
    <MyWhichDistance>WalkingDistance</MyWhichDistance>
  </Volunteer>
  <Volunteer>
    <Id>28646141</Id>
    <Name>Yaara Levi</Name>
    <PhoneNumber>0541283795</PhoneNumber>
    <Email>Yaara.Levi@outlook.com</Email>
    <Password>YL2023</Password>
    <Address>67 Yafo Street, Jerusalem, Israel</Address>
    <Latitude>31.783678</Latitude>
    <Longitude>35.216553</Longitude>
    <MyJob>Manager</MyJob>
    <active>true</active>
    <distance>86.16954519134244</distance>
    <MyWhichDistance>AirDistance</MyWhichDistance>
  </Volunteer>
  <Volunteer>
    <Id>39239439</Id>
    <Name>Eli Ben-David</Name>
    <PhoneNumber>0536472391</PhoneNumber>
    <Email>Eli.BenDavid@mail.com</Email>
    <Password>EliBD2021</Password>
    <Address>101 Herzl Street, Jerusalem, Israel</Address>
    <Latitude>31.780965</Latitude>
    <Longitude>35.188818</Longitude>
    <MyJob>Volunteer</MyJob>
    <active>false</active>
    <distance>91.82075027752137</distance>
    <MyWhichDistance>AirDistance</MyWhichDistance>
  </Volunteer>
  <Volunteer>
    <Id>26042340</Id>
    <Name>Maya Shapiro</Name>
    <PhoneNumber>0589042318</PhoneNumber>
    <Email>Maya.Shapiro@icloud.com</Email>
    <Password>Shapiro44A</Password>
    <Address>23 King David Street, Jerusalem, Israel</Address>
    <Latitude>31.7745543</Latitude>
    <Longitude>35.2226839</Longitude>
    <MyJob>Volunteer</MyJob>
    <active>true</active>
    <distance>62.886047945903364</distance>
    <MyWhichDistance>AirDistance</MyWhichDistance>
  </Volunteer>
  <Volunteer>
    <Id>22498996</Id>
    <Name>Yair Katz</Name>
    <PhoneNumber>0509834657</PhoneNumber>
    <Email>Yair.Katz@googlemail.com</Email>
    <Password>YairKatz99</Password>
    <Address>56 Agron Street, Jerusalem, Israel</Address>
    <Latitude>31.7779632</Latitude>
    <Longitude>35.2221859</Longitude>
    <MyJob>Volunteer</MyJob>
    <active>true</active>
    <distance>96.13487770638798</distance>
    <MyWhichDistance>DrivingDistance</MyWhichDistance>
  </Volunteer>
  <Volunteer>
    <Id>31425851</Id>
    <Name>Noa Peretz</Name>
    <PhoneNumber>0527512386</PhoneNumber>
    <Email>Noa.Peretz@hotmail.com</Email>
    <Password>NoaP321</Password>
    <Address>89 Shlomzion Hamalka Street, Jerusalem, Israel</Address>
    <Latitude>31.7788813</Latitude>
    <Longitude>35.2226822</Longitude>
    <MyJob>Volunteer</MyJob>
    <active>true</active>
    <distance>71.53484026276293</distance>
    <MyWhichDistance>WalkingDistance</MyWhichDistance>
  </Volunteer>
  <Volunteer>
    <Id>15399980</Id>
    <Name>Aviad Cohen</Name>
    <PhoneNumber>0534326759</PhoneNumber>
    <Email>Aviad.Cohen@live.com</Email>
    <Password>Aviad567</Password>
    <Address>32 King George Street, Jerusalem, Israel</Address>
    <Latitude>31.779475</Latitude>
    <Longitude>35.215608</Longitude>
    <MyJob>Volunteer</MyJob>
    <active>true</active>
    <distance>32.38661121126668</distance>
    <MyWhichDistance>AirDistance</MyWhichDistance>
  </Volunteer>
  <Volunteer>
    <Id>34828465</Id>
    <Name>Tamar Israeli</Name>
    <PhoneNumber>0541863420</PhoneNumber>
    <Email>Tamar.Israeli@protonmail.com</Email>
    <Password>Xx1Ab2Cd3</Password>
    <Address>78 Emek Refaim Street, Jerusalem, Israel</Address>
    <Latitude>31.759882</Latitude>
    <Longitude>35.178086</Longitude>
    <MyJob>Volunteer</MyJob>
    <active>true</active>
    <distance>21.370908797761125</distance>
    <MyWhichDistance>AirDistance</MyWhichDistance>
  </Volunteer>
  <Volunteer>
    <Id>15580845</Id>
    <Name>Lior Baruch</Name>
    <PhoneNumber>0582917463</PhoneNumber>
    <Email>Lior.Baruch@aol.com</Email>
    <Password>Baruch2021</Password>
    <Address>5 Derech Hevron, Jerusalem, Israel</Address>
    <Latitude>31.779475</Latitude>
    <Longitude>35.2151934</Longitude>
    <MyJob>Volunteer</MyJob>
    <active>true</active>
    <distance>36.436926924061844</distance>
    <MyWhichDistance>AirDistance</MyWhichDistance>
  </Volunteer>
  <Volunteer>
    <Id>26560268</Id>
    <Name>Daniella Rosen</Name>
    <PhoneNumber>0503275641</PhoneNumber>
    <Email>Daniella.Rosen@zoho.com</Email>
    <Password>Daniella123R</Password>
    <Address>14 Eliezer Kaplan Street, Jerusalem, Israel</Address>
    <Latitude>31.779277</Latitude>
    <Longitude>35.2017399</Longitude>
    <MyJob>Volunteer</MyJob>
    <active>true</active>
    <distance>80.70641020127725</distance>
    <MyWhichDistance>WalkingDistance</MyWhichDistance>
  </Volunteer>
  <Volunteer>
    <Id>29455089</Id>
    <Name>Oren Goldstein</Name>
    <PhoneNumber>0525068493</PhoneNumber>
    <Email>Oren.Goldstein@fastmail.com</Email>
    <Password>OG9876</Password>
    <Address>33 Shmuel Hanavi Street, Jerusalem, Israel</Address>
    <Latitude>31.7898752</Latitude>
    <Longitude>35.2249504</Longitude>
    <MyJob>Volunteer</MyJob>
    <active>true</active>
    <distance>97.02025674822933</distance>
    <MyWhichDistance>DrivingDistance</MyWhichDistance>
  </Volunteer>
  <Volunteer>
    <Id>19132584</Id>
    <Name>Michal Avrahami</Name>
    <PhoneNumber>0537821594</PhoneNumber>
    <Email>Michal.Avrahami@ymail.com</Email>
    <Password>MichalA1001</Password>
    <Address>8 Dov Hoz Street, Jerusalem, Israel</Address>
    <Latitude>31.756329</Latitude>
    <Longitude>35.195831</Longitude>
    <MyJob>Volunteer</MyJob>
    <active>true</active>
    <distance>0.815214458000757</distance>
    <MyWhichDistance>AirDistance</MyWhichDistance>
  </Volunteer>
  <Volunteer>
    <Id>36309703</Id>
    <Name>Nadav Shulman</Name>
    <PhoneNumber>0549342105</PhoneNumber>
    <Email>Nadav.Shulman@hushmail.com</Email>
    <Password>Shulman5555</Password>
    <Address>50 Keren Hayesod Street, Jerusalem, Israel</Address>
    <Latitude>31.7716677</Latitude>
    <Longitude>35.2224285</Longitude>
    <MyJob>Volunteer</MyJob>
    <active>true</active>
    <distance>25.14068555358677</distance>
    <MyWhichDistance>WalkingDistance</MyWhichDistance>
  </Volunteer>
  <Volunteer>
    <Id>32798746</Id>
    <Name>Rachel Dubinsky</Name>
    <PhoneNumber>0586120394</PhoneNumber>
    <Email>Rachel.Dubinsky@msn.com</Email>
    <Password>Rachel78</Password>
    <Address>63 Tchernichovsky Street, Jerusalem, Israel</Address>
    <Latitude>31.7632657</Latitude>
    <Longitude>35.2023972</Longitude>
    <MyJob>Volunteer</MyJob>
    <active>true</active>
    <distance>57.654757365952335</distance>
    <MyWhichDistance>AirDistance</MyWhichDistance>
  </Volunteer>
  <Volunteer>
    <Id>26006552</Id>
    <Name>Uri Dahan</Name>
    <PhoneNumber>0507461283</PhoneNumber>
    <Email>Uri.Dahan@comcast.net</Email>
    <Password>UD3456</Password>
    <Address>29 Menachem Begin Street, Jerusalem, Israel</Address>
    <Latitude>31.777348</Latitude>
    <Longitude>35.212409</Longitude>
    <MyJob>Volunteer</MyJob>
    <active>true</active>
    <distance>29.44479685210838</distance>
    <MyWhichDistance>DrivingDistance</MyWhichDistance>
  </Volunteer>
  <Volunteer>
    <Id>28846515</Id>
    <Name>Yael Chaimovitz</Name>
    <PhoneNumber>0529784530</PhoneNumber>
    <Email>Yael.Chaimovitz@outlook.co.il</Email>
    <Password>YaelCh10</Password>
    <Address>72 Malcha Street, Jerusalem, Israel</Address>
    <Latitude>31.7943135</Latitude>
    <Longitude>35.2244155</Longitude>
    <MyJob>Volunteer</MyJob>
    <active>true</active>
    <distance>12.94312468898834</distance>
    <MyWhichDistance>AirDistance</MyWhichDistance>
  </Volunteer>
  <Volunteer>
    <Id>31884151</Id>
    <Name>Ronit Gross</Name>
    <PhoneNumber>0535289761</PhoneNumber>
    <Email>Ronit.Gross@tutanota.com</Email>
    <Password>RonitG321</Password>
    <Address>101 Sderot Yerushalayim Street, Jerusalem, Israel</Address>
    <Latitude>31.7797692</Latitude>
    <Longitude>35.1880402</Longitude>
    <MyJob>Manager</MyJob>
    <active>true</active>
    <distance>12.02550326254379</distance>
    <MyWhichDistance>AirDistance</MyWhichDistance>
  </Volunteer>
  <Volunteer>
    <Id>17644490</Id>
    <Name>Meir Ziv</Name>
    <PhoneNumber>0543175928</PhoneNumber>
    <Email>Meir.Ziv@me.com</Email>
    <Password>MeirZ2022</Password>
    <Address>120 Shalom Aleichem Street, Jerusalem, Israel</Address>
    <Latitude>31.771344</Latitude>
    <Longitude>35.2207611</Longitude>
    <MyJob>Volunteer</MyJob>
    <active>true</active>
    <distance>13.290289747465556</distance>
    <MyWhichDistance>DrivingDistance</MyWhichDistance>
  </Volunteer>
  <Volunteer>
    <Id>30235096</Id>
    <Name>Tal Ben-Ari</Name>
    <PhoneNumber>0588456201</PhoneNumber>
    <Email>Tal.BenAri@icloud.com</Email>
    <Password>TalBen22A</Password>
    <Address>57 Har Homa Street, Jerusalem, Israel</Address>
    <Latitude>31.7677499</Latitude>
    <Longitude>35.162764</Longitude>
    <MyJob>Volunteer</MyJob>
    <active>true</active>
    <distance>69.16496798931638</distance>
    <MyWhichDistance>AirDistance</MyWhichDistance>
  </Volunteer>
</Volunteers>